{
"type": "FeatureCollection",
"crs": { "type": "name", "properties": { "name": "urn:ogc:def:crs:OGC:1.3:CRS84" } },
                                                                                
"features": [
{ "type": "Feature", "properties": { "Name": "Pulaski County Regional Bldg.", "Start Date": "10\/20\/2014", "End Date": "11\/3\/2014", "Weekday Hours": "8 AM - 6 PM", "Saturdays": "10 AM - 4 PM", "Sunday": "CLOSED", "Notes": "Hours on 11\/3 from 8 AM - 5 PM", "Address": "501 W. Markham St. Little Rock, AR", "County": "Pulaski", "State": "AR" }, "geometry": { "type": "Point", "coordinates": [ -92.27514798, 34.74869405 ] } },
{ "type": "Feature", "properties": { "Name": "Sue Cowan Williams Library", "Start Date": "10\/20\/2014", "End Date": "11\/1\/2014", "Weekday Hours": "10 AM - 6 PM", "Saturdays": "10 AM - 4 PM", "Sunday": "CLOSED", "Notes": null, "Address": "1800 S. Chester St, Little Rock, AR" , "County": "Pulaski", "State": "AR"}, "geometry": { "type": "Point", "coordinates": [ -92.2844163, 34.73287744 ] } },
{ "type": "Feature", "properties": { "Name": "Dee Brown Library", "Start Date": "10\/20\/2014", "End Date": "11\/1\/2014", "Weekday Hours": "10 AM - 6 PM", "Saturdays": "10 AM - 4 PM", "Sunday": "CLOSED", "Notes": null, "Address": "6325 Baselinne Rd, Little Rock, AR" , "County": "Pulaski", "State": "AR"}, "geometry": { "type": "Point", "coordinates": [ -92.35018925, 34.66858981 ] } },
{ "type": "Feature", "properties": { "Name": "Roosevelt Thompson Library", "Start Date": "10\/20\/2014", "End Date": "11\/1\/2014", "Weekday Hours": "10 AM - 6 PM", "Saturdays": "10 AM - 4 PM", "Sunday": "CLOSED", "Notes": null, "Address": "38 Rahling Circle, Little Rock, AR" , "County": "Pulaski", "State": "AR"}, "geometry": { "type": "Point", "coordinates": [ -92.4543988, 34.769117 ] } },
{ "type": "Feature", "properties": { "Name": "William F. Laman Library", "Start Date": "10\/20\/2014", "End Date": "11\/1\/2014", "Weekday Hours": "10 AM - 6 PM", "Saturdays": "10 AM - 4 PM", "Sunday": "CLOSED", "Notes": null, "Address": "2801 Orange St. , N. Little Rock, AR" , "County": "Pulaski", "State": "AR"}, "geometry": { "type": "Point", "coordinates": [ -92.26951206, 34.78008057 ] } },
{ "type": "Feature", "properties": { "Name": "Sidney S. McMath Library", "Start Date": "10\/20\/2014", "End Date": "11\/1\/2014", "Weekday Hours": "10 AM - 6 PM", "Saturdays": "10 AM - 4 PM", "Sunday": "CLOSED", "Notes": null, "Address": "2100 John Barrow Rd, Little Rock, AR" , "County": "Pulaski", "State": "AR"}, "geometry": { "type": "Point", "coordinates": [ -92.37260789, 34.73401803 ] } },
{ "type": "Feature", "properties": { "Name": "Jacksonville Community Center", "Start Date": "10\/20\/2014", "End Date": "11\/1\/2014", "Weekday Hours": "10 AM - 6 PM", "Saturdays": "10 AM - 4 PM", "Sunday": "CLOSED", "Notes": null, "Address": "5 Municipal Dr., Jacksonville, AR" , "County": "Pulaski", "State": "AR"}, "geometry": { "type": "Point", "coordinates": [ -92.13035642, 34.86737757 ] } },
{ "type": "Feature", "properties": { "Name": "Jess Odom Coummunity Center", "Start Date": "10\/20\/2014", "End Date": "11\/1\/2014", "Weekday Hours": "10 AM - 6 PM", "Saturdays": "10 AM - 4 PM", "Sunday": "CLOSED", "Notes": null, "Address": "1100 Edgewood Dr., Maumelle, AR" , "County": "Pulaski", "State": "AR"}, "geometry": { "type": "Point", "coordinates": [ -92.4040611, 34.86644096 ] } },
{ "type": "Feature", "properties": { "Name": "Jack Evans Senior Citizen Center", "Start Date": "10\/20\/2014", "End Date": "11\/1\/2014", "Weekday Hours": "10 AM - 6 PM", "Saturdays": "10 AM - 4 PM", "Sunday": "CLOSED", "Notes": null, "Address": "2301 Thornhill Dr., Sherwood, AR" , "County": "Pulaski", "State": "AR"}, "geometry": { "type": "Point", "coordinates": [ -92.20771878, 34.83430214 ] } },
{ "type": "Feature", "properties": { "Name": "Faulkner County Courthouse", "Start Date": "10\/20\/2014", "End Date": "10\/31\/2014", "Weekday Hours": "9 AM - 6 PM", "Saturdays": "10 AM - 4 PM", "Sunday": "CLOSED", "Notes": null, "Address": "801 Locust St, Conway, AR" , "County": "Faulkner", "State": "AR"}, "geometry": { "type": "Point", "coordinates": [ -92.443197, 35.088704 ] } },
{ "type": "Feature", "properties": { "Name": "Faulkner County Library", "Start Date": "10\/20\/2014", "End Date": "10\/31\/2014", "Weekday Hours": "9 AM - 6 PM", "Saturdays": "10 AM - 4 PM", "Sunday": "CLOSED", "Notes": null, "Address": "1900 W Tyler St, Conway, AR" , "County": "Faulkner", "State": "AR"}, "geometry": { "type": "Point", "coordinates": [ -92.450194, 35.103343 ] } },
{ "type": "Feature", "properties": { "Name": "McGee Sports Center", "Start Date": "10\/20\/2014", "End Date": "10\/31\/2014", "Weekday Hours": "9 AM - 6 PM", "Saturdays": "10 AM - 4 PM", "Sunday": "CLOSED", "Notes": null, "Address": "3800 College Ave, Conway, AR", "County": "Faulkner", "State": "AR"}, "geometry": { "type": "Point", "coordinates": [ -92.495549, 35.085646 ] } },
{ "type": "Feature", "properties": { "Name": "Greenbrier City Events Center", "Start Date": "10\/20\/2014", "End Date": "10\/31\/2014", "Weekday Hours": "9 AM - 6 PM", "Saturdays": "10 AM - 4 PM", "Sunday": "CLOSED", "Notes": null, "Address": "5 Lois Ln, Greenbrier, AR" , "County": "Faulkner", "State": "AR"}, "geometry": { "type": "Point", "coordinates": [ -92.385384, 35.223761 ] } },
{ "type": "Feature", "properties": { "Name": "Vilonia Firt Baptist Church", "Start Date": "10\/20\/2014", "End Date": "10\/31\/2014", "Weekday Hours": "9 AM - 6 PM", "Saturdays": "10 AM - 4 PM", "Sunday": "CLOSED", "Notes": null, "Address": "1206 Main St, Vilonia, AR" , "County": "Faulkner", "State": "AR"}, "geometry": { "type": "Point", "coordinates": [ -92.187605, 35.08731 ] } },
{ "type": "Feature", "properties": { "Name": "Mayflower City Hall", "Start Date": "10\/20\/2014", "End Date": "10\/31\/2014", "Weekday Hours": "9 AM - 6 PM", "Saturdays": "10 AM - 4 PM", "Sunday": "CLOSED", "Notes": null, "Address": "2 Ashmore Dr, Mayflower, AR" , "County": "Faulkner", "State": "AR"}, "geometry": { "type": "Point", "coordinates": [ -92.4273785, 34.9570324 ] } },
{ "type": "Feature", "properties": { "Name": "Perryville Senior Adult Center", "Start Date": "10\/20\/2014", "End Date": "10\/31\/2014", "Weekday Hours": "9 AM - 6 PM", "Saturdays": "10 AM - 4 PM", "Sunday": "CLOSED", "Notes": null, "Address": "107 N. Magnolia St., Perryville, AR" , "County": "Perry", "State": "AR"}, "geometry": { "type": "Point", "coordinates": [ -92.802016, 35.004405 ] } },
{ "type": "Feature", "properties": { "Name": "County Clerk's Office 3rd Floor", "Start Date": "10\/20\/2014", "End Date": "11\/3\/2014", "Weekday Hours": "8 AM - 6 PM", "Saturdays": "10 AM - 4 PM", "Sunday": "CLOSED", "Notes": null, "Address": "280 North College, Fayetteville, AR", "County": "Washington", "State": "AR" }, "geometry": { "type": "Point", "coordinates": [ -94.156387, 36.076572 ] } },
{ "type": "Feature", "properties": { "Name": "Quorum Courtroom 2nd Floor", "Start Date": "10\/20\/2014", "End Date": "11\/3\/2014", "Weekday Hours": "8 AM - 6 PM", "Saturdays": "10 AM - 4 PM", "Sunday": "CLOSED", "Notes": null, "Address": "280 North College, Fayetteville, AR", "County": "Washington", "State": "AR" }, "geometry": { "type": "Point", "coordinates": [ -94.156387, 36.076572 ] } },
{ "type": "Feature", "properties": { "Name": "Arvest Ballpark", "Start Date": "10\/20\/2014", "End Date": "10\/31\/2014", "Weekday Hours": "9:30 AM - 4:30 PM", "Saturdays": "CLOSED", "Sunday": "CLOSED", "Notes": "10\/31 9:30 AM - 1 PM", "Address": "3000 South 56th St, Springdale, AR", "County": "Washington", "State": "AR" }, "geometry": { "type": "Point", "coordinates": [ -94.1930189, 36.1591876 ] } },
{ "type": "Feature", "properties": { "Name": "Boys and Girls Club", "Start Date": "10\/20\/2014", "End Date": "10\/31\/2014", "Weekday Hours": "8 AM - 6 PM", "Saturdays": "CLOSED", "Sunday": "CLOSED", "Notes": null, "Address": "560 North Rupple Rd, Fayetteville", "County": "Washington", "State": "AR" }, "geometry": { "type": "Point", "coordinates": [ -94.216057, 36.07275 ] } },
{ "type": "Feature", "properties": { "Name": "Medical Arts Pharmacy", "Start Date": "10\/20\/2014", "End Date": "10\/31\/2014", "Weekday Hours": "8 AM - 6 PM", "Saturdays": "CLOSED", "Sunday": "CLOSED", "Notes": null, "Address": "2515 East Huntsville, Fayetteville", "County": "Washington", "State": "AR" }, "geometry": { "type": "Point", "coordinates": [ -94.1262589, 36.0526695 ] } },
{ "type": "Feature", "properties": { "Name": "Prairie Grove City Hall", "Start Date": "10\/20\/2014", "End Date": "10\/31\/2014", "Weekday Hours": "8 AM - 6 PM", "Saturdays": "10 AM - 4 PM", "Sunday": "CLOSED", "Notes": null, "Address": "955 East Douglas Street, Suite 4", "County": "Washington", "State": "AR" }, "geometry": { "type": "Point", "coordinates": [ -94.3017597, 35.9833333 ] } },
{ "type": "Feature", "properties": { "Name": "Rodeo Community Center", "Start Date": "10\/20\/2014", "End Date": "10\/31\/2014", "Weekday Hours": "8 AM - 6 PM", "Saturdays": "10 AM - 4 PM", "Sunday": "CLOSED", "Notes": null, "Address": "1423 East Emma St, Springdale", "County": "Washington", "State": "AR" }, "geometry": { "type": "Point", "coordinates": [ -94.1150679, 36.184566 ] } },
{ "type": "Feature", "properties": { "Name": "Faith Fellowship Church", "Start Date": "10\/20\/2014", "End Date": "11\/3\/2014", "Weekday Hours": "8 AM - 5 PM", "Saturdays": "CLOSED", "Sunday": "CLOSED", "Notes": null, "Address": "3213 NORTH HIGHWAY 7, Hot Springs Village", "County": "Garland", "State": "AR" }, "geometry": { "type": "Point", "coordinates": [ -93.0485498, 34.6228116 ] } },
{ "type": "Feature", "properties": { "Name": "Old Armory", "Start Date": "10\/20\/2014", "End Date": "11\/3\/2014", "Weekday Hours": "8 AM - 5 PM", "Saturdays": "CLOSED", "Sunday": "CLOSED", "Notes": null, "Address": "401 Mid-America Blvd, Hot Springs", "County": "Garland", "State": "AR" }, "geometry": { "type": "Point", "coordinates": [ -93.1178916, 34.5157559 ] } },
{ "type": "Feature", "properties": { "Name": "Garland County Election Commission", "Start Date": "10\/20\/2014", "End Date": "11\/3\/2014", "Weekday Hours": "8 AM - 6 PM", "Saturdays": "10 AM - 4 PM", "Sunday": "CLOSED", "Notes": null, "Address": "649 Ouachita Avenue, Hot Springs", "County": "Garland", "State": "AR" }, "geometry": { "type": "Point", "coordinates": [ -93.0614929, 34.5029411 ] } },
{ "type": "Feature", "properties": { "Name": "Fort Smith Courthouse", "Start Date": "10\/20\/2014", "End Date": "11\/3\/2014", "Weekday Hours": "8 AM - 6 PM", "Saturdays": "10 AM - 4 PM", "Sunday": "CLOSED", "Notes": null, "Address": "35 So. 6th, Room 102, Fort Smith, AR", "County": "Garland", "State": "AR" }, "geometry": { "type": "Point", "coordinates": [ -94.3985475, 35.3859242 ] } },
{ "type": "Feature", "properties": { "Name": "Greenwood Courthouse", "Start Date": "10\/20\/2014", "End Date": "11\/3\/2014", "Weekday Hours": "8 AM - 6 PM", "Saturdays": "10 AM - 4 PM", "Sunday": "CLOSED", "Notes": null, "Address": "301 E. Center, Room 104, Greenwood, AR", "County": "Garland", "State": "AR" }, "geometry": { "type": "Point", "coordinates": [ -94.255228, 35.211764 ] } },
{ "type": "Feature", "properties": { "Name": "Benton Early Voting Center", "Start Date": "10\/20\/2014", "End Date": "11\/3\/2014", "Weekday Hours": "8 AM - 6 PM", "Saturdays": "10 AM - 4 PM", "Sunday": "CLOSED", "Notes": null, "Address": "221 North Main, Benton", "County": "Saline", "State": "AR" }, "geometry": { "type": "Point", "coordinates": [ -92.5867639, 34.5647994 ] } },
{ "type": "Feature", "properties": { "Name": "Garce Church", "Start Date": "10\/20\/2014", "End Date": "11\/1\/2014", "Weekday Hours": "10 AM - 6 PM", "Saturdays": "10 AM - 4 PM", "Sunday": "CLOSED", "Notes": null, "Address": "4200 Hwy 5 North, Bryant", "County": "Saline", "State": "AR" }, "geometry": { "type": "Point", "coordinates": [ -92.510468, 34.617722 ] } },
{ "type": "Feature", "properties": { "Name": "Bank of the Ozarks", "Start Date": "10\/20\/2014", "End Date": "11\/1\/2014", "Weekday Hours": "10 AM - 6 PM", "Saturdays": "10 AM - 4 PM", "Sunday": "CLOSED", "Notes": null, "Address": "24705 Hwy 5, Lonsdale", "County": "Saline", "State": "AR" }, "geometry": { "type": "Point", "coordinates": [ -92.8562213, 34.6216241 ] } },
{ "type": "Feature", "properties": { "Name": "East End Fire Department", "Start Date": "10\/20\/2014", "End Date": "11\/1\/2014", "Weekday Hours": "10 AM - 6 PM", "Saturdays": "10 AM - 4 PM", "Sunday": "CLOSED", "Notes": null, "Address": "21900 Baxley Lane, Little Rock", "County": "Saline", "State": "AR" }, "geometry": { "type": "Point", "coordinates": [ -92.3380742, 34.5521683 ] } },
{ "type": "Feature", "properties": { "Name": "Stuttgart Courthouse", "Start Date": null, "End Date": null, "Weekday Hours": null, "Saturdays": null, "Sunday": null, "Notes": "2012 Election Location. Unconfirmed 2014. Source arkansasgop.org", "Address": "302 S. College", "City": "Stuttgart", "County": "Arkansas", "State": "AR", "x": -91.551658, "y": 34.499938 }, "geometry": { "type": "Point", "coordinates": [ -91.551658, 34.499938 ] } },
{ "type": "Feature", "properties": { "Name": "DeWitt Courthouse", "Start Date": null, "End Date": null, "Weekday Hours": null, "Saturdays": null, "Sunday": null, "Notes": "2012 Election Location. Unconfirmed 2014. Source arkansasgop.org", "Address": "101 Court Square", "City": "DeWitt", "County": "Arkansas", "State": "AR", "x": -91.335065, "y": 34.295776 }, "geometry": { "type": "Point", "coordinates": [ -91.335065, 34.295776 ] } },
{ "type": "Feature", "properties": { "Name": "Economic Development Building", "Start Date": null, "End Date": null, "Weekday Hours": null, "Saturdays": null, "Sunday": null, "Notes": "2012 Election Location. Unconfirmed 2014. Source arkansasgop.org", "Address": "125 Main Street", "City": "Crossett", "County": "Ashley", "State": "AR", "x": -91.961605, "y": 33.134926 }, "geometry": { "type": "Point", "coordinates": [ -91.961605, 33.134926 ] } },
{ "type": "Feature", "properties": { "Name": "Ashley County Clerk's Office", "Start Date": null, "End Date": null, "Weekday Hours": null, "Saturdays": null, "Sunday": null, "Notes": "2012 Election Location. Unconfirmed 2014. Source arkansasgop.org", "Address": "205 E. Jefferson", "City": "Hamburg", "County": "Ashley", "State": "AR", "x": -91.796097, "y": 33.227454 }, "geometry": { "type": "Point", "coordinates": [ -91.796097, 33.227454 ] } },
{ "type": "Feature", "properties": { "Name": "Baxter County Courthouse", "Start Date": null, "End Date": null, "Weekday Hours": null, "Saturdays": null, "Sunday": null, "Notes": "2012 Election Location. Unconfirmed 2014. Source arkansasgop.org", "Address": "1 East 7th Street", "City": "Mountain Home", "County": "Baxter", "State": "AR", "x": -92.385329, "y": 36.33476 }, "geometry": { "type": "Point", "coordinates": [ -92.385329, 36.33476 ] } },
{ "type": "Feature", "properties": { "Name": "Siloam Springs County Clerk's Office", "Start Date": null, "End Date": null, "Weekday Hours": null, "Saturdays": null, "Sunday": null, "Notes": "2012 Election Location. Unconfirmed 2014. Source arkansasgop.org", "Address": "707 S. Lincoln", "City": "Siloam Springs", "County": "Benton", "State": "AR", "x": -94.52731, "y": 36.179305 }, "geometry": { "type": "Point", "coordinates": [ -94.52731, 36.179305 ] } },
{ "type": "Feature", "properties": { "Name": "Bentonville County Clerk's Office", "Start Date": null, "End Date": null, "Weekday Hours": null, "Saturdays": null, "Sunday": null, "Notes": "2012 Election Location. Unconfirmed 2014. Source arkansasgop.org", "Address": "215 E. Central Suite 217", "City": "Bentonville", "County": "Benton", "State": "AR", "x": -94.206264, "y": 36.372498 }, "geometry": { "type": "Point", "coordinates": [ -94.206264, 36.372498 ] } },
{ "type": "Feature", "properties": { "Name": "Rogers County Clerk's Office", "Start Date": null, "End Date": null, "Weekday Hours": null, "Saturdays": null, "Sunday": null, "Notes": "2012 Election Location. Unconfirmed 2014. Source arkansasgop.org", "Address": "300 W. Poplar", "City": "Rogers", "County": "Benton", "State": "AR", "x": -94.119345, "y": 36.330924 }, "geometry": { "type": "Point", "coordinates": [ -94.119345, 36.330924 ] } },
{ "type": "Feature", "properties": { "Name": "Ibera Bank-Bentonville", "Start Date": null, "End Date": null, "Weekday Hours": null, "Saturdays": null, "Sunday": null, "Notes": "2012 Election Location. Unconfirmed 2014. Source arkansasgop.org", "Address": "706 S. Walton Blvd", "City": "Bentonville", "County": "Benton", "State": "AR", "x": -94.22109, "y": 36.364879 }, "geometry": { "type": "Point", "coordinates": [ -94.22109, 36.364879 ] } },
{ "type": "Feature", "properties": { "Name": "Riordan Hall", "Start Date": null, "End Date": null, "Weekday Hours": null, "Saturdays": null, "Sunday": null, "Notes": "2012 Election Location. Unconfirmed 2014. Source arkansasgop.org", "Address": "3 Riordan Rd", "City": "Bella Vista", "County": "Benton", "State": "AR", "x": -94.25415, "y": 36.451653 }, "geometry": { "type": "Point", "coordinates": [ -94.25415, 36.451653 ] } },
{ "type": "Feature", "properties": { "Name": "Intrust Bank-Rogers", "Start Date": null, "End Date": null, "Weekday Hours": null, "Saturdays": null, "Sunday": null, "Notes": "2012 Election Location. Unconfirmed 2014. Source arkansasgop.org", "Address": "3300 Market Suite 438", "City": "Rogers", "County": "Benton", "State": "AR", "x": -94.188724, "y": 36.30604 }, "geometry": { "type": "Point", "coordinates": [ -94.188724, 36.30604 ] } },
{ "type": "Feature", "properties": { "Name": "Durand Center", "Start Date": null, "End Date": null, "Weekday Hours": null, "Saturdays": null, "Sunday": null, "Notes": "2012 Election Location. Unconfirmed 2014. Source arkansasgop.org", "Address": "303 North Main", "City": "Harrison", "County": "Boone", "State": "AR", "x": -93.106864, "y": 36.232622 }, "geometry": { "type": "Point", "coordinates": [ -93.106864, 36.232622 ] } },
{ "type": "Feature", "properties": { "Name": "Bradley County Clerk's Office", "Start Date": null, "End Date": null, "Weekday Hours": null, "Saturdays": null, "Sunday": null, "Notes": "2012 Election Location. Unconfirmed 2014. Source arkansasgop.org", "Address": "101 East Ceder St", "City": "Warren", "County": "Bradley", "State": "AR", "x": -92.064249, "y": 33.614399 }, "geometry": { "type": "Point", "coordinates": [ -92.064249, 33.614399 ] } },
{ "type": "Feature", "properties": { "Name": "Calhoun County Courthouse", "Start Date": null, "End Date": null, "Weekday Hours": null, "Saturdays": null, "Sunday": null, "Notes": "2012 Election Location. Unconfirmed 2014. Source arkansasgop.org", "Address": "Room 102 Main Street", "City": "Hampton", "County": "Calhoun", "State": "AR", "x": -92.465132, "y": 33.537728 }, "geometry": { "type": "Point", "coordinates": [ -92.465132, 33.537728 ] } },
{ "type": "Feature", "properties": { "Name": "Carroll County Courthouse", "Start Date": null, "End Date": null, "Weekday Hours": null, "Saturdays": null, "Sunday": null, "Notes": "2012 Election Location. Unconfirmed 2014. Source arkansasgop.org", "Address": "210 W Church Street", "City": "Berryville", "County": "Carroll", "State": "AR", "x": -93.569049, "y": 36.364981 }, "geometry": { "type": "Point", "coordinates": [ -93.569049, 36.364981 ] } },
{ "type": "Feature", "properties": { "Name": "Eureka Springs Courthouse in Clerk's Office", "Start Date": null, "End Date": null, "Weekday Hours": null, "Saturdays": null, "Sunday": null, "Notes": "2012 Election Location. Unconfirmed 2014. Source arkansasgop.org", "Address": "44 S. Main Eureka Springs", "City": "Eurekaa Springs", "County": "Carroll", "State": "AR", "x": -93.738838, "y": 36.400746 }, "geometry": { "type": "Point", "coordinates": [ -93.738838, 36.400746 ] } },
{ "type": "Feature", "properties": { "Name": "Chicot County Courthouse", "Start Date": null, "End Date": null, "Weekday Hours": null, "Saturdays": null, "Sunday": null, "Notes": "2012 Election Location. Unconfirmed 2014. Source arkansasgop.org", "Address": "108 Main Street", "City": "Lake Village", "County": "Chicot", "State": "AR", "x": -91.281773, "y": 33.330992 }, "geometry": { "type": "Point", "coordinates": [ -91.281773, 33.330992 ] } },
{ "type": "Feature", "properties": { "Name": "Clark County Courthouse", "Start Date": null, "End Date": null, "Weekday Hours": null, "Saturdays": null, "Sunday": null, "Notes": "2012 Election Location. Unconfirmed 2014. Source arkansasgop.org", "Address": "401 Clay Street Akadelphia", "City": "Arkadelphia", "County": "Clark", "State": "AR", "x": -93.051335, "y": 34.118817 }, "geometry": { "type": "Point", "coordinates": [ -93.051335, 34.118817 ] } },
{ "type": "Feature", "properties": { "Name": "Piggott Courthouse", "Start Date": null, "End Date": null, "Weekday Hours": null, "Saturdays": null, "Sunday": null, "Notes": "2012 Election Location. Unconfirmed 2014. Source arkansasgop.org", "Address": "2nd Street", "City": "Piggot", "County": "Clay", "State": "AR", "x": -90.223735, "y": 36.34216 }, "geometry": { "type": "Point", "coordinates": [ -90.223735, 36.34216 ] } },
{ "type": "Feature", "properties": { "Name": "Corning Courthouse", "Start Date": null, "End Date": null, "Weekday Hours": null, "Saturdays": null, "Sunday": null, "Notes": "2012 Election Location. Unconfirmed 2014. Source arkansasgop.org", "Address": "800 West 2nd Street", "City": "Corning", "County": "Clay", "State": "AR", "x": -90.583849, "y": 36.404551 }, "geometry": { "type": "Point", "coordinates": [ -90.583849, 36.404551 ] } },
{ "type": "Feature", "properties": { "Name": "Cleburne County Courthouse", "Start Date": null, "End Date": null, "Weekday Hours": null, "Saturdays": null, "Sunday": null, "Notes": "2012 Election Location. Unconfirmed 2014. Source arkansasgop.org", "Address": "301 W Main Street", "City": "Heber Springs", "County": "Cleburne", "State": "AR", "x": -92.032124, "y": 35.491098 }, "geometry": { "type": "Point", "coordinates": [ -92.032124, 35.491098 ] } },
{ "type": "Feature", "properties": { "Name": "Cleveland County Clerk's Office", "Start Date": null, "End Date": null, "Weekday Hours": null, "Saturdays": null, "Sunday": null, "Notes": "2012 Election Location. Unconfirmed 2014. Source arkansasgop.org", "Address": "309 West Main", "City": "Rison", "County": "Cleveland", "State": "AR", "x": -92.18996, "y": 33.958107 }, "geometry": { "type": "Point", "coordinates": [ -92.18996, 33.958107 ] } },
{ "type": "Feature", "properties": { "Name": "Columbia County Courthouse", "Start Date": null, "End Date": null, "Weekday Hours": null, "Saturdays": null, "Sunday": null, "Notes": "2012 Election Location. Unconfirmed 2014. Source arkansasgop.org", "Address": "1 Court Square Suite", "City": "Magnolia", "County": "Columbia", "State": "AR", "x": -93.240792, "y": 33.267405 }, "geometry": { "type": "Point", "coordinates": [ -93.240792, 33.267405 ] } },
{ "type": "Feature", "properties": { "Name": "Conway County Courthouse", "Start Date": null, "End Date": null, "Weekday Hours": null, "Saturdays": null, "Sunday": null, "Notes": "2012 Election Location. Unconfirmed 2014. Source arkansasgop.org", "Address": "4th Floor 117 South Moose Street", "City": "Morrilton", "County": "Conway", "State": "AR", "x": -92.743731, "y": 35.15133 }, "geometry": { "type": "Point", "coordinates": [ -92.743731, 35.15133 ] } },
{ "type": "Feature", "properties": { "Name": "Craighead County Election Annex Building", "Start Date": null, "End Date": null, "Weekday Hours": null, "Saturdays": null, "Sunday": null, "Notes": "2012 Election Location. Unconfirmed 2014. Source arkansasgop.org", "Address": "315 West Jefferson", "City": "Jonesboro", "County": "Craighead", "State": "AR", "x": -90.707336, "y": 35.836991 }, "geometry": { "type": "Point", "coordinates": [ -90.707336, 35.836991 ] } },
{ "type": "Feature", "properties": { "Name": "Lake City Courthouse", "Start Date": null, "End Date": null, "Weekday Hours": null, "Saturdays": null, "Sunday": null, "Notes": "2012 Election Location. Unconfirmed 2014. Source arkansasgop.org", "Address": "405 Court Street", "City": "Lake City", "County": "Craighead", "State": "AR", "x": -90.432165, "y": 35.817414 }, "geometry": { "type": "Point", "coordinates": [ -90.432165, 35.817414 ] } },
{ "type": "Feature", "properties": { "Name": "Crawford County Courthouse", "Start Date": null, "End Date": null, "Weekday Hours": null, "Saturdays": null, "Sunday": null, "Notes": "2012 Election Location. Unconfirmed 2014. Source arkansasgop.org", "Address": "300 Main Street Room 7", "City": "Van Buren", "County": "Crawford", "State": "AR", "x": -94.356166, "y": 35.43408 }, "geometry": { "type": "Point", "coordinates": [ -94.356166, 35.43408 ] } },
{ "type": "Feature", "properties": { "Name": "Crittenden County Courthouse", "Start Date": null, "End Date": null, "Weekday Hours": null, "Saturdays": null, "Sunday": null, "Notes": "2012 Election Location. Unconfirmed 2014. Source arkansasgop.org", "Address": "100 Court Street", "City": "Marion", "County": "Crittenden", "State": "AR", "x": -90.196762, "y": 35.214923 }, "geometry": { "type": "Point", "coordinates": [ -90.196762, 35.214923 ] } },
{ "type": "Feature", "properties": { "Name": "Cross County Courthouse", "Start Date": null, "End Date": null, "Weekday Hours": null, "Saturdays": null, "Sunday": null, "Notes": "2012 Election Location. Unconfirmed 2014. Source arkansasgop.org", "Address": "705 East Union Street e", "City": "Wynn", "County": "Cross", "State": "AR", "x": -90.786648, "y": 35.222863 }, "geometry": { "type": "Point", "coordinates": [ -90.786648, 35.222863 ] } },
{ "type": "Feature", "properties": { "Name": "Dallas County Courthouse", "Start Date": null, "End Date": null, "Weekday Hours": null, "Saturdays": null, "Sunday": null, "Notes": "2012 Election Location. Unconfirmed 2014. Source arkansasgop.org", "Address": "101 West Center St.", "City": "Fordyce", "County": "Dallas", "State": "AR", "x": -92.408606, "y": 33.817716 }, "geometry": { "type": "Point", "coordinates": [ -92.408606, 33.817716 ] } },
{ "type": "Feature", "properties": { "Name": "Desha County Courthouse", "Start Date": null, "End Date": null, "Weekday Hours": null, "Saturdays": null, "Sunday": null, "Notes": "2012 Election Location. Unconfirmed 2014. Source arkansasgop.org", "Address": "Robert S. Moore St.", "City": "Arkansas City", "County": "Desha", "State": "AR", "x": -91.204016, "y": 33.607906 }, "geometry": { "type": "Point", "coordinates": [ -91.204016, 33.607906 ] } },
{ "type": "Feature", "properties": { "Name": "Drew County Courthouse", "Start Date": null, "End Date": null, "Weekday Hours": null, "Saturdays": null, "Sunday": null, "Notes": "2012 Election Location. Unconfirmed 2014. Source arkansasgop.org", "Address": "210 South Main", "City": "Monticello", "County": "Drew", "State": "AR", "x": -91.791116, "y": 33.626446 }, "geometry": { "type": "Point", "coordinates": [ -91.791116, 33.626446 ] } },
{ "type": "Feature", "properties": { "Name": "Charleston Courthouse", "Start Date": null, "End Date": null, "Weekday Hours": null, "Saturdays": null, "Sunday": null, "Notes": "2012 Election Location. Unconfirmed 2014. Source arkansasgop.org", "Address": "460 East Main Street", "City": "Charleston", "County": "Franklin", "State": "AR", "x": -94.038009, "y": 35.297105 }, "geometry": { "type": "Point", "coordinates": [ -94.038009, 35.297105 ] } },
{ "type": "Feature", "properties": { "Name": "Ozark Courthouse", "Start Date": null, "End Date": null, "Weekday Hours": null, "Saturdays": null, "Sunday": null, "Notes": "2012 Election Location. Unconfirmed 2014. Source arkansasgop.org", "Address": "211 West Commercial Street", "City": "Ozark", "County": "Franklin", "State": "AR", "x": -93.826361, "y": 35.486805 }, "geometry": { "type": "Point", "coordinates": [ -93.826361, 35.486805 ] } },
{ "type": "Feature", "properties": { "Name": "Fulton County Courthouse", "Start Date": null, "End Date": null, "Weekday Hours": null, "Saturdays": null, "Sunday": null, "Notes": "2012 Election Location. Unconfirmed 2014. Source arkansasgop.org", "Address": "123 South Main Street", "City": "Salem", "County": "Fulton", "State": "AR", "x": -91.822662, "y": 36.370824 }, "geometry": { "type": "Point", "coordinates": [ -91.822662, 36.370824 ] } },
{ "type": "Feature", "properties": { "Name": "Grant County Courthouse", "Start Date": null, "End Date": null, "Weekday Hours": null, "Saturdays": null, "Sunday": null, "Notes": "2012 Election Location. Unconfirmed 2014. Source arkansasgop.org", "Address": "101 West Center Street", "City": "Sheridan", "County": "Grant", "State": "AR", "x": -92.400328, "y": 34.306797 }, "geometry": { "type": "Point", "coordinates": [ -92.400328, 34.306797 ] } },
{ "type": "Feature", "properties": { "Name": "Greene County Courthouse", "Start Date": null, "End Date": null, "Weekday Hours": null, "Saturdays": null, "Sunday": null, "Notes": "2012 Election Location. Unconfirmed 2014. Source arkansasgop.org", "Address": "320 West Court Street", "City": "Paragould", "County": "Greene", "State": "AR", "x": -90.489479, "y": 36.056214 }, "geometry": { "type": "Point", "coordinates": [ -90.489479, 36.056214 ] } },
{ "type": "Feature", "properties": { "Name": "Hempstead County Courthouse", "Start Date": null, "End Date": null, "Weekday Hours": null, "Saturdays": null, "Sunday": null, "Notes": "2012 Election Location. Unconfirmed 2014. Source arkansasgop.org", "Address": "1st Floor 400 South Washington", "City": "Hope", "County": "Hempstead", "State": "AR", "x": -93.598676, "y": 33.663746 }, "geometry": { "type": "Point", "coordinates": [ -93.598676, 33.663746 ] } },
{ "type": "Feature", "properties": { "Name": "Hot Spring County Courthouse", "Start Date": null, "End Date": null, "Weekday Hours": null, "Saturdays": null, "Sunday": null, "Notes": "2012 Election Location. Unconfirmed 2014. Source arkansasgop.org", "Address": "210 Locust Street", "City": "Malvern", "County": "Hot Spring", "State": "AR", "x": -92.81484, "y": 34.362804 }, "geometry": { "type": "Point", "coordinates": [ -92.81484, 34.362804 ] } },
{ "type": "Feature", "properties": { "Name": "Howard County Courthouse", "Start Date": null, "End Date": null, "Weekday Hours": null, "Saturdays": null, "Sunday": null, "Notes": "2012 Election Location. Unconfirmed 2014. Source arkansasgop.org", "Address": "421 North Main Street", "City": "Nashville", "County": "Howard", "State": "AR", "x": -93.847077, "y": 33.947213 }, "geometry": { "type": "Point", "coordinates": [ -93.847077, 33.947213 ] } },
{ "type": "Feature", "properties": { "Name": "Old Independence Regional Museum", "Start Date": null, "End Date": null, "Weekday Hours": null, "Saturdays": null, "Sunday": null, "Notes": "2012 Election Location. Unconfirmed 2014. Source arkansasgop.org", "Address": "380 South Ninth Street", "City": "Batesville", "County": "Independence", "State": "AR", "x": -91.644088, "y": 35.77246 }, "geometry": { "type": "Point", "coordinates": [ -91.644088, 35.77246 ] } },
{ "type": "Feature", "properties": { "Name": "Izard County Courthouse", "Start Date": null, "End Date": null, "Weekday Hours": null, "Saturdays": null, "Sunday": null, "Notes": "2012 Election Location. Unconfirmed 2014. Source arkansasgop.org", "Address": "500 Main Street", "City": "Melbourne", "County": "Izard", "State": "AR", "x": -91.910282, "y": 36.059277 }, "geometry": { "type": "Point", "coordinates": [ -91.910282, 36.059277 ] } },
{ "type": "Feature", "properties": { "Name": "St. Mary of the Mount Catholic Church Oct", "Start Date": null, "End Date": null, "Weekday Hours": null, "Saturdays": null, "Sunday": null, "Notes": "2012 Election Location. Unconfirmed 2014. Source arkansasgop.org", "Address": "31-Nov 1 1002 First Street", "City": "Horseshoe Bend", "County": "Izard", "State": "AR", "x": -91.756662, "y": 36.214644 }, "geometry": { "type": "Point", "coordinates": [ -91.756662, 36.214644 ] } },
{ "type": "Feature", "properties": { "Name": "Pineville Fire Station November", "Start Date": null, "End Date": null, "Weekday Hours": null, "Saturdays": null, "Sunday": null, "Notes": "2012 Election Location. Unconfirmed 2014. Source arkansasgop.org", "Address": "2nd 964 AR 223 Hwy", "City": "Pineville", "County": "Izard", "State": "AR", "x": -91.98418, "y": 36.495527 }, "geometry": { "type": "Point", "coordinates": [ -91.98418, 36.495527 ] } },
{ "type": "Feature", "properties": { "Name": "Village Mall", "Start Date": null, "End Date": null, "Weekday Hours": null, "Saturdays": null, "Sunday": null, "Notes": "2012 Election Location. Unconfirmed 2014. Source arkansasgop.org", "Address": "#7 Malcolm Avenue", "City": "Newport", "County": "Jackson", "State": "AR", "x": -91.279054, "y": 35.606344 }, "geometry": { "type": "Point", "coordinates": [ -91.279054, 35.606344 ] } },
{ "type": "Feature", "properties": { "Name": "Jefferson County Clerk's Office", "Start Date": null, "End Date": null, "Weekday Hours": null, "Saturdays": null, "Sunday": null, "Notes": "2012 Election Location. Unconfirmed 2014. Source arkansasgop.org", "Address": "101 East Barraque Street", "City": "Pine Bluff", "County": "Jefferson", "State": "AR", "x": -92.003281, "y": 34.229408 }, "geometry": { "type": "Point", "coordinates": [ -92.003281, 34.229408 ] } },
{ "type": "Feature", "properties": { "Name": "Johnson County Clerk's Office", "Start Date": null, "End Date": null, "Weekday Hours": null, "Saturdays": null, "Sunday": null, "Notes": "2012 Election Location. Unconfirmed 2014. Source arkansasgop.org", "Address": "215 West Main Street", "City": "Clarksville", "County": "Johnson", "State": "AR", "x": -93.463927, "y": 35.471165 }, "geometry": { "type": "Point", "coordinates": [ -93.463927, 35.471165 ] } },
{ "type": "Feature", "properties": { "Name": "Lafayette County Clerk's Office", "Start Date": null, "End Date": null, "Weekday Hours": null, "Saturdays": null, "Sunday": null, "Notes": "2012 Election Location. Unconfirmed 2014. Source arkansasgop.org", "Address": "#2 Courthouse Square", "City": "Lewisville", "County": "Lafayette", "State": "AR", "x": -93.577677, "y": 33.358458 }, "geometry": { "type": "Point", "coordinates": [ -93.577677, 33.358458 ] } },
{ "type": "Feature", "properties": { "Name": "Lawrence County Courthouse", "Start Date": null, "End Date": null, "Weekday Hours": null, "Saturdays": null, "Sunday": null, "Notes": "2012 Election Location. Unconfirmed 2014. Source arkansasgop.org", "Address": "315 West Main", "City": "Walnut Ridge", "County": "Lawrence", "State": "AR", "x": -90.957635, "y": 36.070232 }, "geometry": { "type": "Point", "coordinates": [ -90.957635, 36.070232 ] } },
{ "type": "Feature", "properties": { "Name": "County Courthouse Small Court Room", "Start Date": null, "End Date": null, "Weekday Hours": null, "Saturdays": null, "Sunday": null, "Notes": "2012 Election Location. Unconfirmed 2014. Source arkansasgop.org", "Address": "15 E. Chestnut", "City": "Marianna", "County": "Lee", "State": "AR", "x": -90.757261, "y": 34.774524 }, "geometry": { "type": "Point", "coordinates": [ -90.757261, 34.774524 ] } },
{ "type": "Feature", "properties": { "Name": "Lincoln County Courthouse", "Start Date": null, "End Date": null, "Weekday Hours": null, "Saturdays": null, "Sunday": null, "Notes": "2012 Election Location. Unconfirmed 2014. Source arkansasgop.org", "Address": "300 South Drew Street", "City": "Star City", "County": "Lincoln", "State": "AR", "x": -91.84512, "y": 33.940478 }, "geometry": { "type": "Point", "coordinates": [ -91.84512, 33.940478 ] } },
{ "type": "Feature", "properties": { "Name": "Little River County Clerk's Office", "Start Date": null, "End Date": null, "Weekday Hours": null, "Saturdays": null, "Sunday": null, "Notes": "2012 Election Location. Unconfirmed 2014. Source arkansasgop.org", "Address": "351 North Second Street", "City": "Ashdown", "County": "Little River", "State": "AR", "x": -94.132692, "y": 33.672857 }, "geometry": { "type": "Point", "coordinates": [ -94.132692, 33.672857 ] } },
{ "type": "Feature", "properties": { "Name": "Boonville Courthouse", "Start Date": null, "End Date": null, "Weekday Hours": null, "Saturdays": null, "Sunday": null, "Notes": "2012 Election Location. Unconfirmed 2014. Source arkansasgop.org", "Address": "25 W. Walnut", "City": "Paris", "County": "Logan", "State": "AR", "x": -93.730415, "y": 35.292145 }, "geometry": { "type": "Point", "coordinates": [ -93.730415, 35.292145 ] } },
{ "type": "Feature", "properties": { "Name": "Paris Courthouse", "Start Date": null, "End Date": null, "Weekday Hours": null, "Saturdays": null, "Sunday": null, "Notes": "2012 Election Location. Unconfirmed 2014. Source arkansasgop.org", "Address": "366 North Broadway", "City": "Booneville", "County": "Logan", "State": "AR", "x": -93.921411, "y": 35.140916 }, "geometry": { "type": "Point", "coordinates": [ -93.921411, 35.140916 ] } },
{ "type": "Feature", "properties": { "Name": "Cabot City Annex", "Start Date": null, "End Date": null, "Weekday Hours": null, "Saturdays": null, "Sunday": null, "Notes": "2012 Election Location. Unconfirmed 2014. Source arkansasgop.org", "Address": "208 N. 1st Street", "City": "Cabot", "County": "Lonoke", "State": "AR", "x": -92.015398, "y": 34.974637 }, "geometry": { "type": "Point", "coordinates": [ -92.015398, 34.974637 ] } },
{ "type": "Feature", "properties": { "Name": "Lonoke Election Building", "Start Date": null, "End Date": null, "Weekday Hours": null, "Saturdays": null, "Sunday": null, "Notes": "2012 Election Location. Unconfirmed 2014. Source arkansasgop.org", "Address": "220 Depot Street", "City": "Lonoke", "County": "Lonoke", "State": "AR", "x": -91.901448, "y": 34.785852 }, "geometry": { "type": "Point", "coordinates": [ -91.901448, 34.785852 ] } },
{ "type": "Feature", "properties": { "Name": "Madison County Clerk's Office", "Start Date": null, "End Date": null, "Weekday Hours": null, "Saturdays": null, "Sunday": null, "Notes": "2012 Election Location. Unconfirmed 2014. Source arkansasgop.org", "Address": "201 West Main Street", "City": "Huntsville", "County": "Madison", "State": "AR", "x": -93.737112, "y": 36.087094 }, "geometry": { "type": "Point", "coordinates": [ -93.737112, 36.087094 ] } },
{ "type": "Feature", "properties": { "Name": "Marion County Courthouse Highway", "Start Date": null, "End Date": null, "Weekday Hours": null, "Saturdays": null, "Sunday": null, "Notes": "2012 Election Location. Unconfirmed 2014. Source arkansasgop.org", "Address": "62", "City": "Yellville", "County": "Marion", "State": "AR", "x": -92.687966, "y": 36.225751 }, "geometry": { "type": "Point", "coordinates": [ -92.687966, 36.225751 ] } },
{ "type": "Feature", "properties": { "Name": "Miller County Courthouse", "Start Date": null, "End Date": null, "Weekday Hours": null, "Saturdays": null, "Sunday": null, "Notes": "2012 Election Location. Unconfirmed 2014. Source arkansasgop.org", "Address": "1st Floor 400 Laurel Texarkana", "City": "Osceola", "County": "Miller", "State": "AR", "x": -89.969532, "y": 35.705078 }, "geometry": { "type": "Point", "coordinates": [ -89.969532, 35.705078 ] } },
{ "type": "Feature", "properties": { "Name": "Osceola Courthouse", "Start Date": null, "End Date": null, "Weekday Hours": null, "Saturdays": null, "Sunday": null, "Notes": "2012 Election Location. Unconfirmed 2014. Source arkansasgop.org", "Address": "200 West Hale Street", "City": "Osceola", "County": "Mississippi", "State": "AR", "x": -89.969574, "y": 35.703245 }, "geometry": { "type": "Point", "coordinates": [ -89.969574, 35.703245 ] } },
{ "type": "Feature", "properties": { "Name": "Greyhound Bus Depot Visitor Center & Museum", "Start Date": null, "End Date": null, "Weekday Hours": null, "Saturdays": null, "Sunday": null, "Notes": "2012 Election Location. Unconfirmed 2014. Source arkansasgop.org", "Address": "109 North 5th Street", "City": "Blytheville", "County": "Mississippi", "State": "AR", "x": -89.908154, "y": 35.927361 }, "geometry": { "type": "Point", "coordinates": [ -89.908154, 35.927361 ] } },
{ "type": "Feature", "properties": { "Name": "Manila Depot", "Start Date": null, "End Date": null, "Weekday Hours": null, "Saturdays": null, "Sunday": null, "Notes": "2012 Election Location. Unconfirmed 2014. Source arkansasgop.org", "Address": "105 Dewey Street", "City": "Manila", "County": "Mississippi", "State": "AR", "x": -90.157054, "y": 35.878773 }, "geometry": { "type": "Point", "coordinates": [ -90.157054, 35.878773 ] } },
{ "type": "Feature", "properties": { "Name": "Arkansas Northeastern College-Leachville", "Start Date": null, "End Date": null, "Weekday Hours": null, "Saturdays": null, "Sunday": null, "Notes": "2012 Election Location. Unconfirmed 2014. Source arkansasgop.org", "Address": "105 North Main Street", "City": "Leachville", "County": "Mississippi", "State": "AR", "x": -90.25828, "y": 35.938174 }, "geometry": { "type": "Point", "coordinates": [ -90.25828, 35.938174 ] } },
{ "type": "Feature", "properties": { "Name": "Monroe County Courthouse", "Start Date": null, "End Date": null, "Weekday Hours": null, "Saturdays": null, "Sunday": null, "Notes": "2012 Election Location. Unconfirmed 2014. Source arkansasgop.org", "Address": "123 Madison Street", "City": "Clarendon", "County": "Monroe", "State": "AR", "x": -91.314245, "y": 34.692811 }, "geometry": { "type": "Point", "coordinates": [ -91.314245, 34.692811 ] } },
{ "type": "Feature", "properties": { "Name": "Montgomery County Annex", "Start Date": null, "End Date": null, "Weekday Hours": null, "Saturdays": null, "Sunday": null, "Notes": "2012 Election Location. Unconfirmed 2014. Source arkansasgop.org", "Address": "117 Ray Dr", "City": "Mt. Ida", "County": "Montgomery", "State": "AR", "x": -93.638813, "y": 34.555884 }, "geometry": { "type": "Point", "coordinates": [ -93.638813, 34.555884 ] } },
{ "type": "Feature", "properties": { "Name": "Nevada County Courthouse", "Start Date": null, "End Date": null, "Weekday Hours": null, "Saturdays": null, "Sunday": null, "Notes": "2012 Election Location. Unconfirmed 2014. Source arkansasgop.org", "Address": "215 East Second Street South", "City": "Prescott", "County": "Nevada", "State": "AR", "x": -93.380722, "y": 33.800565 }, "geometry": { "type": "Point", "coordinates": [ -93.380722, 33.800565 ] } },
{ "type": "Feature", "properties": { "Name": "Newton County Clerk's Office", "Start Date": null, "End Date": null, "Weekday Hours": null, "Saturdays": null, "Sunday": null, "Notes": "2012 Election Location. Unconfirmed 2014. Source arkansasgop.org", "Address": "100 E Court St", "City": "Jasper", "County": "Newton", "State": "AR", "x": -90.196762, "y": 35.214923 }, "geometry": { "type": "Point", "coordinates": [ -90.196762, 35.214923 ] } },
{ "type": "Feature", "properties": { "Name": "Old Post Office", "Start Date": null, "End Date": null, "Weekday Hours": null, "Saturdays": null, "Sunday": null, "Notes": "2012 Election Location. Unconfirmed 2014. Source arkansasgop.org", "Address": "Main Street", "City": "Camden", "County": "Ouachita", "State": "AR", "x": -93.077408, "y": 33.411445 }, "geometry": { "type": "Point", "coordinates": [ -93.077408, 33.411445 ] } },
{ "type": "Feature", "properties": { "Name": "Diane Wilson Senior Citizen's Building", "Start Date": null, "End Date": null, "Weekday Hours": null, "Saturdays": null, "Sunday": null, "Notes": "2012 Election Location. Unconfirmed 2014. Source arkansasgop.org", "Address": "204 W Main Street", "City": "Perryville", "County": "Perry", "State": "AR", "x": -92.801825, "y": 35.004795 }, "geometry": { "type": "Point", "coordinates": [ -92.801825, 35.004795 ] } },
{ "type": "Feature", "properties": { "Name": "Phillips County Courthouse", "Start Date": null, "End Date": null, "Weekday Hours": null, "Saturdays": null, "Sunday": null, "Notes": "2012 Election Location. Unconfirmed 2014. Source arkansasgop.org", "Address": "620 Cherry Street", "City": "Helena", "County": "Phillips", "State": "AR", "x": -90.586123, "y": 34.528277 }, "geometry": { "type": "Point", "coordinates": [ -90.586123, 34.528277 ] } },
{ "type": "Feature", "properties": { "Name": "Glenwood City Hall", "Start Date": null, "End Date": null, "Weekday Hours": null, "Saturdays": null, "Sunday": null, "Notes": "2012 Election Location. Unconfirmed 2014. Source arkansasgop.org", "Address": "210 North Second Street", "City": "Glenwood", "County": "Pike", "State": "AR", "x": -93.551384, "y": 34.327468 }, "geometry": { "type": "Point", "coordinates": [ -93.551384, 34.327468 ] } },
{ "type": "Feature", "properties": { "Name": "Pike County Clerk's Office", "Start Date": null, "End Date": null, "Weekday Hours": null, "Saturdays": null, "Sunday": null, "Notes": "2012 Election Location. Unconfirmed 2014. Source arkansasgop.org", "Address": "112 Washington Ave Suite A", "City": "Murfreesboro", "County": "Pike", "State": "AR", "x": -93.690431, "y": 34.062754 }, "geometry": { "type": "Point", "coordinates": [ -93.690431, 34.062754 ] } },
{ "type": "Feature", "properties": { "Name": "Poinsett County Courthouse", "Start Date": null, "End Date": null, "Weekday Hours": null, "Saturdays": null, "Sunday": null, "Notes": "2012 Election Location. Unconfirmed 2014. Source arkansasgop.org", "Address": "401 Market Street", "City": "Harrisburg", "County": "Poinsett", "State": "AR", "x": -90.717234, "y": 35.563315 }, "geometry": { "type": "Point", "coordinates": [ -90.717234, 35.563315 ] } },
{ "type": "Feature", "properties": { "Name": "Polk County Office Complex", "Start Date": null, "End Date": null, "Weekday Hours": null, "Saturdays": null, "Sunday": null, "Notes": "2012 Election Location. Unconfirmed 2014. Source arkansasgop.org", "Address": "606 Pine Street", "City": "Mena", "County": "Polk", "State": "AR", "x": -94.233312, "y": 34.578604 }, "geometry": { "type": "Point", "coordinates": [ -94.233312, 34.578604 ] } },
{ "type": "Feature", "properties": { "Name": "Election Headquarters", "Start Date": null, "End Date": null, "Weekday Hours": null, "Saturdays": null, "Sunday": null, "Notes": "2012 Election Location. Unconfirmed 2014. Source arkansasgop.org", "Address": "1509 E Main Suite 7", "City": "Russellville", "County": "Pope", "State": "AR", "x": -93.113825, "y": 35.279405 }, "geometry": { "type": "Point", "coordinates": [ -93.113825, 35.279405 ] } },
{ "type": "Feature", "properties": { "Name": "Des Arc Courthouse", "Start Date": null, "End Date": null, "Weekday Hours": null, "Saturdays": null, "Sunday": null, "Notes": "2012 Election Location. Unconfirmed 2014. Source arkansasgop.org", "Address": "200 Courthouse Square", "City": "Des Arc", "County": "Prairie", "State": "AR", "x": -91.495131, "y": 34.977035 }, "geometry": { "type": "Point", "coordinates": [ -91.495131, 34.977035 ] } },
{ "type": "Feature", "properties": { "Name": "Devalls Bluff Courthouse", "Start Date": null, "End Date": null, "Weekday Hours": null, "Saturdays": null, "Sunday": null, "Notes": "2012 Election Location. Unconfirmed 2014. Source arkansasgop.org", "Address": "123 Magnolia Street", "City": "Devalls Bluff", "County": "Prairie", "State": "AR", "x": -91.458463, "y": 34.784816 }, "geometry": { "type": "Point", "coordinates": [ -91.458463, 34.784816 ] } },
{ "type": "Feature", "properties": { "Name": "Randolph County Courthouse", "Start Date": null, "End Date": null, "Weekday Hours": null, "Saturdays": null, "Sunday": null, "Notes": "2012 Election Location. Unconfirmed 2014. Source arkansasgop.org", "Address": "107 West Broadway", "City": "Pocahontas", "County": "Randolph", "State": "AR", "x": -90.970506, "y": 36.261134 }, "geometry": { "type": "Point", "coordinates": [ -90.970506, 36.261134 ] } },
{ "type": "Feature", "properties": { "Name": "Scott County Courthouse", "Start Date": null, "End Date": null, "Weekday Hours": null, "Saturdays": null, "Sunday": null, "Notes": "2012 Election Location. Unconfirmed 2014. Source arkansasgop.org", "Address": "190 West First Street", "City": "Waldron", "County": "Scott", "State": "AR", "x": -94.090763, "y": 34.898432 }, "geometry": { "type": "Point", "coordinates": [ -94.090763, 34.898432 ] } },
{ "type": "Feature", "properties": { "Name": "Searcy County Courthouse", "Start Date": null, "End Date": null, "Weekday Hours": null, "Saturdays": null, "Sunday": null, "Notes": "2012 Election Location. Unconfirmed 2014. Source arkansasgop.org", "Address": "Courthouse Square", "City": "Marshall", "County": "Searcy", "State": "AR", "x": -92.631275, "y": 35.908964 }, "geometry": { "type": "Point", "coordinates": [ -92.631275, 35.908964 ] } },
{ "type": "Feature", "properties": { "Name": "Sevier County Clerk's Office", "Start Date": null, "End Date": null, "Weekday Hours": null, "Saturdays": null, "Sunday": null, "Notes": "2012 Election Location. Unconfirmed 2014. Source arkansasgop.org", "Address": "115 North 3rd Street", "City": "DeQueen", "County": "Sevier", "State": "AR", "x": -94.340306, "y": 34.036899 }, "geometry": { "type": "Point", "coordinates": [ -94.340306, 34.036899 ] } },
{ "type": "Feature", "properties": { "Name": "Sharp County Courthouse", "Start Date": null, "End Date": null, "Weekday Hours": null, "Saturdays": null, "Sunday": null, "Notes": "2012 Election Location. Unconfirmed 2014. Source arkansasgop.org", "Address": "718 Drive", "City": "Ash Flat", "County": "Sharp", "State": "AR", "x": -91.606802, "y": 36.228102 }, "geometry": { "type": "Point", "coordinates": [ -91.606802, 36.228102 ] } },
{ "type": "Feature", "properties": { "Name": "St. Francis County Courthouse", "Start Date": null, "End Date": null, "Weekday Hours": null, "Saturdays": null, "Sunday": null, "Notes": "2012 Election Location. Unconfirmed 2014. Source arkansasgop.org", "Address": "313 S. Izard Street", "City": "Forrest City", "County": "St. Francis", "State": "AR", "x": -90.783075, "y": 35.007908 }, "geometry": { "type": "Point", "coordinates": [ -90.783075, 35.007908 ] } },
{ "type": "Feature", "properties": { "Name": "Stone County Elections Office", "Start Date": null, "End Date": null, "Weekday Hours": null, "Saturdays": null, "Sunday": null, "Notes": "2012 Election Location. Unconfirmed 2014. Source arkansasgop.org", "Address": "111 N. Peabody Avenue", "City": "Mountain View", "County": "Stone", "State": "AR", "x": -92.117724, "y": 35.86865 }, "geometry": { "type": "Point", "coordinates": [ -92.117724, 35.86865 ] } },
{ "type": "Feature", "properties": { "Name": "Union County Courthouse", "Start Date": null, "End Date": null, "Weekday Hours": null, "Saturdays": null, "Sunday": null, "Notes": "2012 Election Location. Unconfirmed 2014. Source arkansasgop.org", "Address": "Suite 102 101 North Washington", "City": "El Dorado", "County": "Union", "State": "AR", "x": -92.663723, "y": 33.211884 }, "geometry": { "type": "Point", "coordinates": [ -92.663723, 33.211884 ] } },
{ "type": "Feature", "properties": { "Name": "Van Buren County Voter Registration Office", "Start Date": null, "End Date": null, "Weekday Hours": null, "Saturdays": null, "Sunday": null, "Notes": "2012 Election Location. Unconfirmed 2014. Source arkansasgop.org", "Address": "1414 Hwy 69 S Suite 131", "City": "Clinton", "County": "Van Buren", "State": "AR", "x": -92.458324, "y": 35.604853 }, "geometry": { "type": "Point", "coordinates": [ -92.458324, 35.604853 ] } },
{ "type": "Feature", "properties": { "Name": "White County Courthouse", "Start Date": null, "End Date": null, "Weekday Hours": null, "Saturdays": null, "Sunday": null, "Notes": "2012 Election Location. Unconfirmed 2014. Source arkansasgop.org", "Address": "300 N Spruce", "City": "Searcy", "County": "White", "State": "AR", "x": -91.738151, "y": 35.250406 }, "geometry": { "type": "Point", "coordinates": [ -91.738151, 35.250406 ] } },
{ "type": "Feature", "properties": { "Name": "Beebe City Hall", "Start Date": null, "End Date": null, "Weekday Hours": null, "Saturdays": null, "Sunday": null, "Notes": "2012 Election Location. Unconfirmed 2014. Source arkansasgop.org", "Address": "321 N Elm St", "City": "Beebe", "County": "White", "State": "AR", "x": -91.884093, "y": 35.071287 }, "geometry": { "type": "Point", "coordinates": [ -91.884093, 35.071287 ] } },
{ "type": "Feature", "properties": { "Name": "Temple Baptist Church", "Start Date": null, "End Date": null, "Weekday Hours": null, "Saturdays": null, "Sunday": null, "Notes": "2012 Election Location. Unconfirmed 2014. Source arkansasgop.org", "Address": "1803 Highway Avenue North", "City": "Bald Knob", "County": "White", "State": "AR", "x": -91.580898, "y": 35.303368 }, "geometry": { "type": "Point", "coordinates": [ -91.580898, 35.303368 ] } },
{ "type": "Feature", "properties": { "Name": "Woodruff County Courthouse", "Start Date": null, "End Date": null, "Weekday Hours": null, "Saturdays": null, "Sunday": null, "Notes": "2012 Election Location. Unconfirmed 2014. Source arkansasgop.org", "Address": "500 N. 3rd Street", "City": "Augusta", "County": "Woodruff", "State": "AR", "x": -91.365066, "y": 35.287272 }, "geometry": { "type": "Point", "coordinates": [ -91.365066, 35.287272 ] } },
{ "type": "Feature", "properties": { "Name": "Danville Courthouse", "Start Date": null, "End Date": null, "Weekday Hours": null, "Saturdays": null, "Sunday": null, "Notes": "2012 Election Location. Unconfirmed 2014. Source arkansasgop.org", "Address": "101 E. 5th Street", "City": "Danville", "County": "Yell", "State": "AR", "x": -93.394853, "y": 35.056555 }, "geometry": { "type": "Point", "coordinates": [ -93.394853, 35.056555 ] } },
{ "type": "Feature", "properties": { "Name": "Darnelle Courthouse", "Start Date": null, "End Date": null, "Weekday Hours": null, "Saturdays": null, "Sunday": null, "Notes": "2012 Election Location. Unconfirmed 2014. Source arkansasgop.org", "Address": "108 Union Street", "City": "Darnelle", "County": "Yell", "State": "AR", "x": -93.156544, "y": 35.224216 }, "geometry": { "type": "Point", "coordinates": [ -93.156544, 35.224216 ] } }
]
}
